[{"Away_team": "CHA", "Location": {"lat": 35.2270869, "long": 35.2270869}, "City_name": "Charlotte", "Arena_name": "Spectrum Center", "Date": "20180310", "Home_team": "PHX"}, {"Away_team": "MIA", "Location": {"lat": 25.7616798, "long": 25.7616798}, "City_name": "Miami", "Arena_name": "AmericanAirlines Arena", "Date": "20180310", "Home_team": "WAS"}, {"Away_team": "DAL", "Location": {"lat": 32.7766642, "long": 32.7766642}, "City_name": "Dallas", "Arena_name": "American Airlines Center", "Date": "20180310", "Home_team": "MEM"}, {"Away_team": "OKC", "Location": {"lat": 35.4675602, "long": 35.4675602}, "City_name": "Oklahoma City", "Arena_name": "Chesapeake Energy Arena", "Date": "20180310", "Home_team": "SAS"}, {"Away_team": "LAC", "Location": {"lat": 34.0522342, "long": 34.0522342}, "City_name": "Los Angeles", "Arena_name": "Staples Center", "Date": "20180310", "Home_team": "ORL"}, {"Away_team": "NYK", "Location": {"lat": 40.7127753, "long": 40.7127753}, "City_name": "New York", "Arena_name": "Madison Square Garden", "Date": "20180311", "Home_team": "TOR"}, {"Away_team": "ATL", "Location": {"lat": 33.7489954, "long": 33.7489954}, "City_name": "Atlanta", "Arena_name": "Philips Arena", "Date": "20180311", "Home_team": "CHI"}, {"Away_team": "MIN", "Location": {"lat": 44.977753, "long": 44.977753}, "City_name": "Minneapolis", "Arena_name": "Target Center", "Date": "20180311", "Home_team": "GSW"}, {"Away_team": "NOP", "Location": {"lat": 29.95106579999999, "long": 29.95106579999999}, "City_name": "New Orleans", "Arena_name": "Smoothie King Center", "Date": "20180311", "Home_team": "UTA"}, {"Away_team": "DEN", "Location": {"lat": 39.7392358, "long": 39.7392358}, "City_name": "Denver", "Arena_name": "Pepsi Center", "Date": "20180311", "Home_team": "SAC"}, {"Away_team": "DAL", "Location": {"lat": 32.7766642, "long": 32.7766642}, "City_name": "Dallas", "Arena_name": "American Airlines Center", "Date": "20180311", "Home_team": "HOU"}, {"Away_team": "BOS", "Location": {"lat": 42.3600825, "long": 42.3600825}, "City_name": "Boston", "Arena_name": "TD Garden", "Date": "20180311", "Home_team": "IND"}, {"Away_team": "BKN", "Location": {"lat": 40.6781784, "long": 40.6781784}, "City_name": "Brooklyn", "Arena_name": "Barclays Center", "Date": "20180311", "Home_team": "PHI"}, {"Away_team": "LAL", "Location": {"lat": 34.0522342, "long": 34.0522342}, "City_name": "Los Angeles", "Arena_name": "Staples Center", "Date": "20180311", "Home_team": "CLE"}, {"Away_team": "HOU", "Location": {"lat": 29.7604267, "long": 29.7604267}, "City_name": "Houston", "Arena_name": "Toyota Center", "Date": "20180312", "Home_team": "SAS"}, {"Away_team": "MEM", "Location": {"lat": 35.1495343, "long": 35.1495343}, "City_name": "Memphis", "Arena_name": "FedExForum", "Date": "20180312", "Home_team": "MIL"}, {"Away_team": "OKC", "Location": {"lat": 35.4675602, "long": 35.4675602}, "City_name": "Oklahoma City", "Arena_name": "Chesapeake Energy Arena", "Date": "20180312", "Home_team": "SAC"}, {"Away_team": "POR", "Location": {"lat": 45.5230622, "long": 45.5230622}, "City_name": "Portland", "Arena_name": "Moda Center", "Date": "20180312", "Home_team": "MIA"}, {"Away_team": "PHI", "Location": {"lat": 39.9525839, "long": 39.9525839}, "City_name": "Philadelphia", "Arena_name": "Wells Fargo Center", "Date": "20180313", "Home_team": "IND"}, {"Away_team": "WAS", "Location": {"lat": 47.7510741, "long": 47.7510741}, "City_name": "Washington", "Arena_name": "Capital One Arena", "Date": "20180313", "Home_team": "MIN"}, {"Away_team": "ATL", "Location": {"lat": 33.7489954, "long": 33.7489954}, "City_name": "Atlanta", "Arena_name": "Philips Arena", "Date": "20180313", "Home_team": "OKC"}, {"Away_team": "BKN", "Location": {"lat": 40.6781784, "long": 40.6781784}, "City_name": "Brooklyn", "Arena_name": "Barclays Center", "Date": "20180313", "Home_team": "TOR"}, {"Away_team": "NYK", "Location": {"lat": 40.7127753, "long": 40.7127753}, "City_name": "New York", "Arena_name": "Madison Square Garden", "Date": "20180313", "Home_team": "DAL"}, {"Away_team": "CHI", "Location": {"lat": 41.8781136, "long": 41.8781136}, "City_name": "Chicago", "Arena_name": "United Center", "Date": "20180313", "Home_team": "LAC"}, {"Away_team": "NOP", "Location": {"lat": 29.95106579999999, "long": 29.95106579999999}, "City_name": "New Orleans", "Arena_name": "Smoothie King Center", "Date": "20180313", "Home_team": "CHA"}, {"Away_team": "SAS", "Location": {"lat": 29.4241219, "long": 29.4241219}, "City_name": "San Antonio", "Arena_name": "AT&T Center", "Date": "20180313", "Home_team": "ORL"}, {"Away_team": "UTA", "Location": {"lat": 40.7607793, "long": 40.7607793}, "City_name": "Salt Lake City", "Arena_name": "Vivint Smart Home Arena", "Date": "20180313", "Home_team": "DET"}, {"Away_team": "PHX", "Location": {"lat": 33.4483771, "long": 33.4483771}, "City_name": "Phoenix", "Arena_name": "Talking Stick Resort Arena", "Date": "20180313", "Home_team": "CLE"}, {"Away_team": "LAL", "Location": {"lat": 34.0522342, "long": 34.0522342}, "City_name": "Los Angeles", "Arena_name": "Staples Center", "Date": "20180313", "Home_team": "DEN"}, {"Away_team": "ORL", "Location": {"lat": 28.5383355, "long": 28.5383355}, "City_name": "Orlando", "Arena_name": "Amway Center", "Date": "20180314", "Home_team": "MIL"}, {"Away_team": "BOS", "Location": {"lat": 42.3600825, "long": 42.3600825}, "City_name": "Boston", "Arena_name": "TD Garden", "Date": "20180314", "Home_team": "WAS"}, {"Away_team": "SAC", "Location": {"lat": 38.5815719, "long": 38.5815719}, "City_name": "Sacramento", "Arena_name": "Golden 1 Center", "Date": "20180314", "Home_team": "MIA"}, {"Away_team": "GSW", "Location": {"lat": 37.8043637, "long": 37.8043637}, "City_name": "Oakland", "Arena_name": "ORACLE Arena", "Date": "20180314", "Home_team": "LAL"}, {"Away_team": "IND", "Location": {"lat": 39.768403, "long": 39.768403}, "City_name": "Indianapolis", "Arena_name": "Bankers Life Fieldhouse", "Date": "20180315", "Home_team": "TOR"}, {"Away_team": "ATL", "Location": {"lat": 33.7489954, "long": 33.7489954}, "City_name": "Atlanta", "Arena_name": "Philips Arena", "Date": "20180315", "Home_team": "CHA"}, {"Away_team": "NYK", "Location": {"lat": 40.7127753, "long": 40.7127753}, "City_name": "New York", "Arena_name": "Madison Square Garden", "Date": "20180315", "Home_team": "PHI"}, {"Away_team": "HOU", "Location": {"lat": 29.7604267, "long": 29.7604267}, "City_name": "Houston", "Arena_name": "Toyota Center", "Date": "20180315", "Home_team": "LAC"}, {"Away_team": "MEM", "Location": {"lat": 35.1495343, "long": 35.1495343}, "City_name": "Memphis", "Arena_name": "FedExForum", "Date": "20180315", "Home_team": "CHI"}, {"Away_team": "SAS", "Location": {"lat": 29.4241219, "long": 29.4241219}, "City_name": "San Antonio", "Arena_name": "AT&T Center", "Date": "20180315", "Home_team": "NOP"}, {"Away_team": "DEN", "Location": {"lat": 39.7392358, "long": 39.7392358}, "City_name": "Denver", "Arena_name": "Pepsi Center", "Date": "20180315", "Home_team": "DET"}, {"Away_team": "UTA", "Location": {"lat": 40.7607793, "long": 40.7607793}, "City_name": "Salt Lake City", "Arena_name": "Vivint Smart Home Arena", "Date": "20180315", "Home_team": "PHX"}, {"Away_team": "POR", "Location": {"lat": 45.5230622, "long": 45.5230622}, "City_name": "Portland", "Arena_name": "Moda Center", "Date": "20180315", "Home_team": "CLE"}, {"Away_team": "ORL", "Location": {"lat": 28.5383355, "long": 28.5383355}, "City_name": "Orlando", "Arena_name": "Amway Center", "Date": "20180316", "Home_team": "BOS"}, {"Away_team": "PHI", "Location": {"lat": 39.9525839, "long": 39.9525839}, "City_name": "Philadelphia", "Arena_name": "Wells Fargo Center", "Date": "20180316", "Home_team": "BKN"}, {"Away_team": "TOR", "Location": {"lat": 43.653226, "long": 43.653226}, "City_name": "Toronto", "Arena_name": "Air Canada Centre", "Date": "20180316", "Home_team": "DAL"}, {"Away_team": "OKC", "Location": {"lat": 35.4675602, "long": 35.4675602}, "City_name": "Oklahoma City", "Arena_name": "Chesapeake Energy Arena", "Date": "20180316", "Home_team": "LAC"}, {"Away_team": "GSW", "Location": {"lat": 37.8043637, "long": 37.8043637}, "City_name": "Oakland", "Arena_name": "ORACLE Arena", "Date": "20180316", "Home_team": "SAC"}, {"Away_team": "LAL", "Location": {"lat": 34.0522342, "long": 34.0522342}, "City_name": "Los Angeles", "Arena_name": "Staples Center", "Date": "20180316", "Home_team": "MIA"}, {"Away_team": "MIL", "Location": {"lat": 43.0389025, "long": 43.0389025}, "City_name": "Milwaukee", "Arena_name": "BMO Harris Bradley Center", "Date": "20180317", "Home_team": "ATL"}, {"Away_team": "WAS", "Location": {"lat": 47.7510741, "long": 47.7510741}, "City_name": "Washington", "Arena_name": "Capital One Arena", "Date": "20180317", "Home_team": "IND"}, {"Away_team": "NOP", "Location": {"lat": 29.95106579999999, "long": 29.95106579999999}, "City_name": "New Orleans", "Arena_name": "Smoothie King Center", "Date": "20180317", "Home_team": "HOU"}, {"Away_team": "BKN", "Location": {"lat": 40.6781784, "long": 40.6781784}, "City_name": "Brooklyn", "Arena_name": "Barclays Center", "Date": "20180317", "Home_team": "DAL"}, {"Away_team": "NYK", "Location": {"lat": 40.7127753, "long": 40.7127753}, "City_name": "New York", "Arena_name": "Madison Square Garden", "Date": "20180317", "Home_team": "CHA"}, {"Away_team": "CHI", "Location": {"lat": 41.8781136, "long": 41.8781136}, "City_name": "Chicago", "Arena_name": "United Center", "Date": "20180317", "Home_team": "CLE"}, {"Away_team": "MEM", "Location": {"lat": 35.1495343, "long": 35.1495343}, "City_name": "Memphis", "Arena_name": "FedExForum", "Date": "20180317", "Home_team": "DEN"}, {"Away_team": "SAS", "Location": {"lat": 29.4241219, "long": 29.4241219}, "City_name": "San Antonio", "Arena_name": "AT&T Center", "Date": "20180317", "Home_team": "MIN"}, {"Away_team": "UTA", "Location": {"lat": 40.7607793, "long": 40.7607793}, "City_name": "Salt Lake City", "Arena_name": "Vivint Smart Home Arena", "Date": "20180317", "Home_team": "SAC"}, {"Away_team": "PHX", "Location": {"lat": 33.4483771, "long": 33.4483771}, "City_name": "Phoenix", "Arena_name": "Talking Stick Resort Arena", "Date": "20180317", "Home_team": "GSW"}, {"Away_team": "POR", "Location": {"lat": 45.5230622, "long": 45.5230622}, "City_name": "Portland", "Arena_name": "Moda Center", "Date": "20180317", "Home_team": "DET"}, {"Away_team": "TOR", "Location": {"lat": 43.653226, "long": 43.653226}, "City_name": "Toronto", "Arena_name": "Air Canada Centre", "Date": "20180318", "Home_team": "OKC"}, {"Away_team": "NOP", "Location": {"lat": 29.95106579999999, "long": 29.95106579999999}, "City_name": "New Orleans", "Arena_name": "Smoothie King Center", "Date": "20180318", "Home_team": "BOS"}, {"Away_team": "MIN", "Location": {"lat": 44.977753, "long": 44.977753}, "City_name": "Minneapolis", "Arena_name": "Target Center", "Date": "20180318", "Home_team": "HOU"}, {"Away_team": "LAC", "Location": {"lat": 34.0522342, "long": 34.0522342}, "City_name": "Los Angeles", "Arena_name": "Staples Center", "Date": "20180318", "Home_team": "POR"}, {"Away_team": "CLE", "Location": {"lat": 41.49932, "long": 41.49932}, "City_name": "Cleveland", "Arena_name": "Quicken Loans Arena", "Date": "20180319", "Home_team": "MIL"}, {"Away_team": "IND", "Location": {"lat": 39.768403, "long": 39.768403}, "City_name": "Indianapolis", "Arena_name": "Bankers Life Fieldhouse", "Date": "20180319", "Home_team": "LAL"}, {"Away_team": "PHI", "Location": {"lat": 39.9525839, "long": 39.9525839}, "City_name": "Philadelphia", "Arena_name": "Wells Fargo Center", "Date": "20180319", "Home_team": "CHA"}, {"Away_team": "BKN", "Location": {"lat": 40.6781784, "long": 40.6781784}, "City_name": "Brooklyn", "Arena_name": "Barclays Center", "Date": "20180319", "Home_team": "MEM"}, {"Away_team": "MIA", "Location": {"lat": 25.7616798, "long": 25.7616798}, "City_name": "Miami", "Arena_name": "AmericanAirlines Arena", "Date": "20180319", "Home_team": "DEN"}, {"Away_team": "NYK", "Location": {"lat": 40.7127753, "long": 40.7127753}, "City_name": "New York", "Arena_name": "Madison Square Garden", "Date": "20180319", "Home_team": "CHI"}, {"Away_team": "SAS", "Location": {"lat": 29.4241219, "long": 29.4241219}, "City_name": "San Antonio", "Arena_name": "AT&T Center", "Date": "20180319", "Home_team": "GSW"}, {"Away_team": "SAC", "Location": {"lat": 38.5815719, "long": 38.5815719}, "City_name": "Sacramento", "Arena_name": "Golden 1 Center", "Date": "20180319", "Home_team": "DET"}, {"Away_team": "ORL", "Location": {"lat": 28.5383355, "long": 28.5383355}, "City_name": "Orlando", "Arena_name": "Amway Center", "Date": "20180320", "Home_team": "TOR"}, {"Away_team": "BOS", "Location": {"lat": 42.3600825, "long": 42.3600825}, "City_name": "Boston", "Arena_name": "TD Garden", "Date": "20180320", "Home_team": "OKC"}, {"Away_team": "MIN", "Location": {"lat": 44.977753, "long": 44.977753}, "City_name": "Minneapolis", "Arena_name": "Target Center", "Date": "20180320", "Home_team": "LAC"}, {"Away_team": "NOP", "Location": {"lat": 29.95106579999999, "long": 29.95106579999999}, "City_name": "New Orleans", "Arena_name": "Smoothie King Center", "Date": "20180320", "Home_team": "DAL"}, {"Away_team": "UTA", "Location": {"lat": 40.7607793, "long": 40.7607793}, "City_name": "Salt Lake City", "Arena_name": "Vivint Smart Home Arena", "Date": "20180320", "Home_team": "ATL"}, {"Away_team": "PHX", "Location": {"lat": 33.4483771, "long": 33.4483771}, "City_name": "Phoenix", "Arena_name": "Talking Stick Resort Arena", "Date": "20180320", "Home_team": "DET"}, {"Away_team": "POR", "Location": {"lat": 45.5230622, "long": 45.5230622}, "City_name": "Portland", "Arena_name": "Moda Center", "Date": "20180320", "Home_team": "HOU"}, {"Away_team": "CLE", "Location": {"lat": 41.49932, "long": 41.49932}, "City_name": "Cleveland", "Arena_name": "Quicken Loans Arena", "Date": "20180321", "Home_team": "TOR"}, {"Away_team": "PHI", "Location": {"lat": 39.9525839, "long": 39.9525839}, "City_name": "Philadelphia", "Arena_name": "Wells Fargo Center", "Date": "20180321", "Home_team": "MEM"}, {"Away_team": "BKN", "Location": {"lat": 40.6781784, "long": 40.6781784}, "City_name": "Brooklyn", "Arena_name": "Barclays Center", "Date": "20180321", "Home_team": "CHA"}, {"Away_team": "MIA", "Location": {"lat": 25.7616798, "long": 25.7616798}, "City_name": "Miami", "Arena_name": "AmericanAirlines Arena", "Date": "20180321", "Home_team": "NYK"}, {"Away_team": "NOP", "Location": {"lat": 29.95106579999999, "long": 29.95106579999999}, "City_name": "New Orleans", "Arena_name": "Smoothie King Center", "Date": "20180321", "Home_team": "IND"}, {"Away_team": "CHI", "Location": {"lat": 41.8781136, "long": 41.8781136}, "City_name": "Chicago", "Arena_name": "United Center", "Date": "20180321", "Home_team": "DEN"}, {"Away_team": "MIL", "Location": {"lat": 43.0389025, "long": 43.0389025}, "City_name": "Milwaukee", "Arena_name": "BMO Harris Bradley Center", "Date": "20180321", "Home_team": "LAC"}, {"Away_team": "SAS", "Location": {"lat": 29.4241219, "long": 29.4241219}, "City_name": "San Antonio", "Arena_name": "AT&T Center", "Date": "20180321", "Home_team": "WAS"}, {"Away_team": "CHA", "Location": {"lat": 35.2270869, "long": 35.2270869}, "City_name": "Charlotte", "Arena_name": "Spectrum Center", "Date": "20180322", "Home_team": "MEM"}, {"Away_team": "ORL", "Location": {"lat": 28.5383355, "long": 28.5383355}, "City_name": "Orlando", "Arena_name": "Amway Center", "Date": "20180322", "Home_team": "PHI"}, {"Away_team": "HOU", "Location": {"lat": 29.7604267, "long": 29.7604267}, "City_name": "Houston", "Arena_name": "Toyota Center", "Date": "20180322", "Home_team": "DET"}, {"Away_team": "NOP", "Location": {"lat": 29.95106579999999, "long": 29.95106579999999}, "City_name": "New Orleans", "Arena_name": "Smoothie King Center", "Date": "20180322", "Home_team": "LAL"}, {"Away_team": "DAL", "Location": {"lat": 32.7766642, "long": 32.7766642}, "City_name": "Dallas", "Arena_name": "American Airlines Center", "Date": "20180322", "Home_team": "UTA"}, {"Away_team": "SAC", "Location": {"lat": 38.5815719, "long": 38.5815719}, "City_name": "Sacramento", "Arena_name": "Golden 1 Center", "Date": "20180322", "Home_team": "ATL"}, {"Away_team": "IND", "Location": {"lat": 39.768403, "long": 39.768403}, "City_name": "Indianapolis", "Arena_name": "Bankers Life Fieldhouse", "Date": "20180323", "Home_team": "LAC"}, {"Away_team": "WAS", "Location": {"lat": 47.7510741, "long": 47.7510741}, "City_name": "Washington", "Arena_name": "Capital One Arena", "Date": "20180323", "Home_team": "DEN"}, {"Away_team": "CLE", "Location": {"lat": 41.49932, "long": 41.49932}, "City_name": "Cleveland", "Arena_name": "Quicken Loans Arena", "Date": "20180323", "Home_team": "PHX"}, {"Away_team": "NYK", "Location": {"lat": 40.7127753, "long": 40.7127753}, "City_name": "New York", "Arena_name": "Madison Square Garden", "Date": "20180323", "Home_team": "MIN"}, {"Away_team": "TOR", "Location": {"lat": 43.653226, "long": 43.653226}, "City_name": "Toronto", "Arena_name": "Air Canada Centre", "Date": "20180323", "Home_team": "BKN"}, {"Away_team": "CHI", "Location": {"lat": 41.8781136, "long": 41.8781136}, "City_name": "Chicago", "Arena_name": "United Center", "Date": "20180323", "Home_team": "MIL"}, {"Away_team": "OKC", "Location": {"lat": 35.4675602, "long": 35.4675602}, "City_name": "Oklahoma City", "Arena_name": "Chesapeake Energy Arena", "Date": "20180323", "Home_team": "MIA"}, {"Away_team": "SAS", "Location": {"lat": 29.4241219, "long": 29.4241219}, "City_name": "San Antonio", "Arena_name": "AT&T Center", "Date": "20180323", "Home_team": "UTA"}, {"Away_team": "POR", "Location": {"lat": 45.5230622, "long": 45.5230622}, "City_name": "Portland", "Arena_name": "Moda Center", "Date": "20180323", "Home_team": "BOS"}, {"Away_team": "GSW", "Location": {"lat": 37.8043637, "long": 37.8043637}, "City_name": "Oakland", "Arena_name": "ORACLE Arena", "Date": "20180323", "Home_team": "ATL"}, {"Away_team": "PHI", "Location": {"lat": 39.9525839, "long": 39.9525839}, "City_name": "Philadelphia", "Arena_name": "Wells Fargo Center", "Date": "20180324", "Home_team": "MIN"}, {"Away_team": "DET", "Location": {"lat": 42.331427, "long": 42.331427}, "City_name": "Detroit", "Arena_name": "Little Caesars Arena", "Date": "20180324", "Home_team": "CHI"}, {"Away_team": "ORL", "Location": {"lat": 28.5383355, "long": 28.5383355}, "City_name": "Orlando", "Arena_name": "Amway Center", "Date": "20180324", "Home_team": "PHX"}, {"Away_team": "HOU", "Location": {"lat": 29.7604267, "long": 29.7604267}, "City_name": "Houston", "Arena_name": "Toyota Center", "Date": "20180324", "Home_team": "NOP"}, {"Away_team": "MEM", "Location": {"lat": 35.1495343, "long": 35.1495343}, "City_name": "Memphis", "Arena_name": "FedExForum", "Date": "20180324", "Home_team": "LAL"}, {"Away_team": "DAL", "Location": {"lat": 32.7766642, "long": 32.7766642}, "City_name": "Dallas", "Arena_name": "American Airlines Center", "Date": "20180324", "Home_team": "CHA"}, {"Away_team": "BKN", "Location": {"lat": 40.6781784, "long": 40.6781784}, "City_name": "Brooklyn", "Arena_name": "Barclays Center", "Date": "20180325", "Home_team": "CLE"}, {"Away_team": "MIL", "Location": {"lat": 43.0389025, "long": 43.0389025}, "City_name": "Milwaukee", "Arena_name": "BMO Harris Bradley Center", "Date": "20180325", "Home_team": "SAS"}, {"Away_team": "IND", "Location": {"lat": 39.768403, "long": 39.768403}, "City_name": "Indianapolis", "Arena_name": "Bankers Life Fieldhouse", "Date": "20180325", "Home_team": "MIA"}, {"Away_team": "TOR", "Location": {"lat": 43.653226, "long": 43.653226}, "City_name": "Toronto", "Arena_name": "Air Canada Centre", "Date": "20180325", "Home_team": "LAC"}, {"Away_team": "WAS", "Location": {"lat": 47.7510741, "long": 47.7510741}, "City_name": "Washington", "Arena_name": "Capital One Arena", "Date": "20180325", "Home_team": "NYK"}, {"Away_team": "SAC", "Location": {"lat": 38.5815719, "long": 38.5815719}, "City_name": "Sacramento", "Arena_name": "Golden 1 Center", "Date": "20180325", "Home_team": "BOS"}, {"Away_team": "OKC", "Location": {"lat": 35.4675602, "long": 35.4675602}, "City_name": "Oklahoma City", "Arena_name": "Chesapeake Energy Arena", "Date": "20180325", "Home_team": "POR"}, {"Away_team": "HOU", "Location": {"lat": 29.7604267, "long": 29.7604267}, "City_name": "Houston", "Arena_name": "Toyota Center", "Date": "20180325", "Home_team": "ATL"}, {"Away_team": "GSW", "Location": {"lat": 37.8043637, "long": 37.8043637}, "City_name": "Oakland", "Arena_name": "ORACLE Arena", "Date": "20180325", "Home_team": "UTA"}, {"Away_team": "CHA", "Location": {"lat": 35.2270869, "long": 35.2270869}, "City_name": "Charlotte", "Arena_name": "Spectrum Center", "Date": "20180326", "Home_team": "NYK"}, {"Away_team": "DET", "Location": {"lat": 42.331427, "long": 42.331427}, "City_name": "Detroit", "Arena_name": "Little Caesars Arena", "Date": "20180326", "Home_team": "LAL"}, {"Away_team": "PHI", "Location": {"lat": 39.9525839, "long": 39.9525839}, "City_name": "Philadelphia", "Arena_name": "Wells Fargo Center", "Date": "20180326", "Home_team": "DEN"}, {"Away_team": "MIN", "Location": {"lat": 44.977753, "long": 44.977753}, "City_name": "Minneapolis", "Arena_name": "Target Center", "Date": "20180326", "Home_team": "MEM"}, {"Away_team": "PHX", "Location": {"lat": 33.4483771, "long": 33.4483771}, "City_name": "Phoenix", "Arena_name": "Talking Stick Resort Arena", "Date": "20180326", "Home_team": "BOS"}, {"Away_team": "WAS", "Location": {"lat": 47.7510741, "long": 47.7510741}, "City_name": "Washington", "Arena_name": "Capital One Arena", "Date": "20180327", "Home_team": "SAS"}, {"Away_team": "TOR", "Location": {"lat": 43.653226, "long": 43.653226}, "City_name": "Toronto", "Arena_name": "Air Canada Centre", "Date": "20180327", "Home_team": "DEN"}, {"Away_team": "MIA", "Location": {"lat": 25.7616798, "long": 25.7616798}, "City_name": "Miami", "Arena_name": "AmericanAirlines Arena", "Date": "20180327", "Home_team": "CLE"}, {"Away_team": "HOU", "Location": {"lat": 29.7604267, "long": 29.7604267}, "City_name": "Houston", "Arena_name": "Toyota Center", "Date": "20180327", "Home_team": "CHI"}, {"Away_team": "NOP", "Location": {"lat": 29.95106579999999, "long": 29.95106579999999}, "City_name": "New Orleans", "Arena_name": "Smoothie King Center", "Date": "20180327", "Home_team": "POR"}, {"Away_team": "SAC", "Location": {"lat": 38.5815719, "long": 38.5815719}, "City_name": "Sacramento", "Arena_name": "Golden 1 Center", "Date": "20180327", "Home_team": "DAL"}, {"Away_team": "GSW", "Location": {"lat": 37.8043637, "long": 37.8043637}, "City_name": "Oakland", "Arena_name": "ORACLE Arena", "Date": "20180327", "Home_team": "IND"}, {"Away_team": "LAC", "Location": {"lat": 34.0522342, "long": 34.0522342}, "City_name": "Los Angeles", "Arena_name": "Staples Center", "Date": "20180327", "Home_team": "MIL"}, {"Away_team": "CHA", "Location": {"lat": 35.2270869, "long": 35.2270869}, "City_name": "Charlotte", "Arena_name": "Spectrum Center", "Date": "20180328", "Home_team": "CLE"}, {"Away_team": "ORL", "Location": {"lat": 28.5383355, "long": 28.5383355}, "City_name": "Orlando", "Arena_name": "Amway Center", "Date": "20180328", "Home_team": "BKN"}, {"Away_team": "PHI", "Location": {"lat": 39.9525839, "long": 39.9525839}, "City_name": "Philadelphia", "Arena_name": "Wells Fargo Center", "Date": "20180328", "Home_team": "NYK"}, {"Away_team": "MEM", "Location": {"lat": 35.1495343, "long": 35.1495343}, "City_name": "Memphis", "Arena_name": "FedExForum", "Date": "20180328", "Home_team": "POR"}, {"Away_team": "MIN", "Location": {"lat": 44.977753, "long": 44.977753}, "City_name": "Minneapolis", "Arena_name": "Target Center", "Date": "20180328", "Home_team": "ATL"}, {"Away_team": "UTA", "Location": {"lat": 40.7607793, "long": 40.7607793}, "City_name": "Salt Lake City", "Arena_name": "Vivint Smart Home Arena", "Date": "20180328", "Home_team": "BOS"}, {"Away_team": "PHX", "Location": {"lat": 33.4483771, "long": 33.4483771}, "City_name": "Phoenix", "Arena_name": "Talking Stick Resort Arena", "Date": "20180328", "Home_team": "LAC"}, {"Away_team": "LAL", "Location": {"lat": 34.0522342, "long": 34.0522342}, "City_name": "Los Angeles", "Arena_name": "Staples Center", "Date": "20180328", "Home_team": "DAL"}, {"Away_team": "DET", "Location": {"lat": 42.331427, "long": 42.331427}, "City_name": "Detroit", "Arena_name": "Little Caesars Arena", "Date": "20180329", "Home_team": "WAS"}, {"Away_team": "MIA", "Location": {"lat": 25.7616798, "long": 25.7616798}, "City_name": "Miami", "Arena_name": "AmericanAirlines Arena", "Date": "20180329", "Home_team": "CHI"}, {"Away_team": "SAS", "Location": {"lat": 29.4241219, "long": 29.4241219}, "City_name": "San Antonio", "Arena_name": "AT&T Center", "Date": "20180329", "Home_team": "OKC"}, {"Away_team": "SAC", "Location": {"lat": 38.5815719, "long": 38.5815719}, "City_name": "Sacramento", "Arena_name": "Golden 1 Center", "Date": "20180329", "Home_team": "IND"}, {"Away_team": "GSW", "Location": {"lat": 37.8043637, "long": 37.8043637}, "City_name": "Oakland", "Arena_name": "ORACLE Arena", "Date": "20180329", "Home_team": "MIL"}, {"Away_team": "ORL", "Location": {"lat": 28.5383355, "long": 28.5383355}, "City_name": "Orlando", "Arena_name": "Amway Center", "Date": "20180330", "Home_team": "CHI"}, {"Away_team": "ATL", "Location": {"lat": 33.7489954, "long": 33.7489954}, "City_name": "Atlanta", "Arena_name": "Philips Arena", "Date": "20180330", "Home_team": "PHI"}, {"Away_team": "CLE", "Location": {"lat": 41.49932, "long": 41.49932}, "City_name": "Cleveland", "Arena_name": "Quicken Loans Arena", "Date": "20180330", "Home_team": "NOP"}, {"Away_team": "HOU", "Location": {"lat": 29.7604267, "long": 29.7604267}, "City_name": "Houston", "Arena_name": "Toyota Center", "Date": "20180330", "Home_team": "PHX"}, {"Away_team": "OKC", "Location": {"lat": 35.4675602, "long": 35.4675602}, "City_name": "Oklahoma City", "Arena_name": "Chesapeake Energy Arena", "Date": "20180330", "Home_team": "DEN"}, {"Away_team": "DAL", "Location": {"lat": 32.7766642, "long": 32.7766642}, "City_name": "Dallas", "Arena_name": "American Airlines Center", "Date": "20180330", "Home_team": "MIN"}, {"Away_team": "UTA", "Location": {"lat": 40.7607793, "long": 40.7607793}, "City_name": "Salt Lake City", "Arena_name": "Vivint Smart Home Arena", "Date": "20180330", "Home_team": "MEM"}, {"Away_team": "LAL", "Location": {"lat": 34.0522342, "long": 34.0522342}, "City_name": "Los Angeles", "Arena_name": "Staples Center", "Date": "20180330", "Home_team": "MIL"}, {"Away_team": "POR", "Location": {"lat": 45.5230622, "long": 45.5230622}, "City_name": "Portland", "Arena_name": "Moda Center", "Date": "20180330", "Home_team": "LAC"}, {"Away_team": "WAS", "Location": {"lat": 47.7510741, "long": 47.7510741}, "City_name": "Washington", "Arena_name": "Capital One Arena", "Date": "20180331", "Home_team": "CHA"}, {"Away_team": "NYK", "Location": {"lat": 40.7127753, "long": 40.7127753}, "City_name": "New York", "Arena_name": "Madison Square Garden", "Date": "20180331", "Home_team": "DET"}, {"Away_team": "BOS", "Location": {"lat": 42.3600825, "long": 42.3600825}, "City_name": "Boston", "Arena_name": "TD Garden", "Date": "20180331", "Home_team": "TOR"}, {"Away_team": "MIA", "Location": {"lat": 25.7616798, "long": 25.7616798}, "City_name": "Miami", "Arena_name": "AmericanAirlines Arena", "Date": "20180331", "Home_team": "BKN"}, {"Away_team": "SAC", "Location": {"lat": 38.5815719, "long": 38.5815719}, "City_name": "Sacramento", "Arena_name": "Golden 1 Center", "Date": "20180331", "Home_team": "GSW"}, {"Away_team": "CHA", "Location": {"lat": 35.2270869, "long": 35.2270869}, "City_name": "Charlotte", "Arena_name": "Spectrum Center", "Date": "20180401", "Home_team": "PHI"}, {"Away_team": "CHI", "Location": {"lat": 41.8781136, "long": 41.8781136}, "City_name": "Chicago", "Arena_name": "United Center", "Date": "20180401", "Home_team": "WAS"}, {"Away_team": "SAS", "Location": {"lat": 29.4241219, "long": 29.4241219}, "City_name": "San Antonio", "Arena_name": "AT&T Center", "Date": "20180401", "Home_team": "HOU"}, {"Away_team": "LAC", "Location": {"lat": 34.0522342, "long": 34.0522342}, "City_name": "Los Angeles", "Arena_name": "Staples Center", "Date": "20180401", "Home_team": "IND"}, {"Away_team": "ATL", "Location": {"lat": 33.7489954, "long": 33.7489954}, "City_name": "Atlanta", "Arena_name": "Philips Arena", "Date": "20180401", "Home_team": "ORL"}, {"Away_team": "BKN", "Location": {"lat": 40.6781784, "long": 40.6781784}, "City_name": "Brooklyn", "Arena_name": "Barclays Center", "Date": "20180401", "Home_team": "DET"}, {"Away_team": "CLE", "Location": {"lat": 41.49932, "long": 41.49932}, "City_name": "Cleveland", "Arena_name": "Quicken Loans Arena", "Date": "20180401", "Home_team": "DAL"}, {"Away_team": "NOP", "Location": {"lat": 29.95106579999999, "long": 29.95106579999999}, "City_name": "New Orleans", "Arena_name": "Smoothie King Center", "Date": "20180401", "Home_team": "OKC"}, {"Away_team": "MIN", "Location": {"lat": 44.977753, "long": 44.977753}, "City_name": "Minneapolis", "Arena_name": "Target Center", "Date": "20180401", "Home_team": "UTA"}, {"Away_team": "DEN", "Location": {"lat": 39.7392358, "long": 39.7392358}, "City_name": "Denver", "Arena_name": "Pepsi Center", "Date": "20180401", "Home_team": "MIL"}, {"Away_team": "GSW", "Location": {"lat": 37.8043637, "long": 37.8043637}, "City_name": "Oakland", "Arena_name": "ORACLE Arena", "Date": "20180401", "Home_team": "PHX"}, {"Away_team": "POR", "Location": {"lat": 45.5230622, "long": 45.5230622}, "City_name": "Portland", "Arena_name": "Moda Center", "Date": "20180401", "Home_team": "MEM"}, {"Away_team": "LAL", "Location": {"lat": 34.0522342, "long": 34.0522342}, "City_name": "Los Angeles", "Arena_name": "Staples Center", "Date": "20180401", "Home_team": "SAC"}, {"Away_team": "CLE", "Location": {"lat": 41.49932, "long": 41.49932}, "City_name": "Cleveland", "Arena_name": "Quicken Loans Arena", "Date": "20180403", "Home_team": "TOR"}, {"Away_team": "PHI", "Location": {"lat": 39.9525839, "long": 39.9525839}, "City_name": "Philadelphia", "Arena_name": "Wells Fargo Center", "Date": "20180403", "Home_team": "BKN"}, {"Away_team": "MIA", "Location": {"lat": 25.7616798, "long": 25.7616798}, "City_name": "Miami", "Arena_name": "AmericanAirlines Arena", "Date": "20180403", "Home_team": "ATL"}, {"Away_team": "NYK", "Location": {"lat": 40.7127753, "long": 40.7127753}, "City_name": "New York", "Arena_name": "Madison Square Garden", "Date": "20180403", "Home_team": "ORL"}, {"Away_team": "CHI", "Location": {"lat": 41.8781136, "long": 41.8781136}, "City_name": "Chicago", "Arena_name": "United Center", "Date": "20180403", "Home_team": "CHA"}, {"Away_team": "HOU", "Location": {"lat": 29.7604267, "long": 29.7604267}, "City_name": "Houston", "Arena_name": "Toyota Center", "Date": "20180403", "Home_team": "WAS"}, {"Away_team": "MIL", "Location": {"lat": 43.0389025, "long": 43.0389025}, "City_name": "Milwaukee", "Arena_name": "BMO Harris Bradley Center", "Date": "20180403", "Home_team": "BOS"}, {"Away_team": "OKC", "Location": {"lat": 35.4675602, "long": 35.4675602}, "City_name": "Oklahoma City", "Arena_name": "Chesapeake Energy Arena", "Date": "20180403", "Home_team": "GSW"}, {"Away_team": "DAL", "Location": {"lat": 32.7766642, "long": 32.7766642}, "City_name": "Dallas", "Arena_name": "American Airlines Center", "Date": "20180403", "Home_team": "POR"}, {"Away_team": "DEN", "Location": {"lat": 39.7392358, "long": 39.7392358}, "City_name": "Denver", "Arena_name": "Pepsi Center", "Date": "20180403", "Home_team": "IND"}, {"Away_team": "UTA", "Location": {"lat": 40.7607793, "long": 40.7607793}, "City_name": "Salt Lake City", "Arena_name": "Vivint Smart Home Arena", "Date": "20180403", "Home_team": "LAL"}, {"Away_team": "PHX", "Location": {"lat": 33.4483771, "long": 33.4483771}, "City_name": "Phoenix", "Arena_name": "Talking Stick Resort Arena", "Date": "20180403", "Home_team": "SAC"}, {"Away_team": "LAC", "Location": {"lat": 34.0522342, "long": 34.0522342}, "City_name": "Los Angeles", "Arena_name": "Staples Center", "Date": "20180403", "Home_team": "SAS"}, {"Away_team": "DET", "Location": {"lat": 42.331427, "long": 42.331427}, "City_name": "Detroit", "Arena_name": "Little Caesars Arena", "Date": "20180404", "Home_team": "PHI"}, {"Away_team": "ORL", "Location": {"lat": 28.5383355, "long": 28.5383355}, "City_name": "Orlando", "Arena_name": "Amway Center", "Date": "20180404", "Home_team": "DAL"}, {"Away_team": "TOR", "Location": {"lat": 43.653226, "long": 43.653226}, "City_name": "Toronto", "Arena_name": "Air Canada Centre", "Date": "20180404", "Home_team": "BOS"}, {"Away_team": "ATL", "Location": {"lat": 33.7489954, "long": 33.7489954}, "City_name": "Atlanta", "Arena_name": "Philips Arena", "Date": "20180404", "Home_team": "MIA"}, {"Away_team": "NOP", "Location": {"lat": 29.95106579999999, "long": 29.95106579999999}, "City_name": "New Orleans", "Arena_name": "Smoothie King Center", "Date": "20180404", "Home_team": "MEM"}, {"Away_team": "LAL", "Location": {"lat": 34.0522342, "long": 34.0522342}, "City_name": "Los Angeles", "Arena_name": "Staples Center", "Date": "20180404", "Home_team": "SAS"}, {"Away_team": "IND", "Location": {"lat": 39.768403, "long": 39.768403}, "City_name": "Indianapolis", "Arena_name": "Bankers Life Fieldhouse", "Date": "20180405", "Home_team": "GSW"}, {"Away_team": "CLE", "Location": {"lat": 41.49932, "long": 41.49932}, "City_name": "Cleveland", "Arena_name": "Quicken Loans Arena", "Date": "20180405", "Home_team": "WAS"}, {"Away_team": "HOU", "Location": {"lat": 29.7604267, "long": 29.7604267}, "City_name": "Houston", "Arena_name": "Toyota Center", "Date": "20180405", "Home_team": "POR"}, {"Away_team": "MIL", "Location": {"lat": 43.0389025, "long": 43.0389025}, "City_name": "Milwaukee", "Arena_name": "BMO Harris Bradley Center", "Date": "20180405", "Home_team": "BKN"}, {"Away_team": "UTA", "Location": {"lat": 40.7607793, "long": 40.7607793}, "City_name": "Salt Lake City", "Arena_name": "Vivint Smart Home Arena", "Date": "20180405", "Home_team": "LAC"}, {"Away_team": "DEN", "Location": {"lat": 39.7392358, "long": 39.7392358}, "City_name": "Denver", "Arena_name": "Pepsi Center", "Date": "20180405", "Home_team": "MIN"}, {"Away_team": "DET", "Location": {"lat": 42.331427, "long": 42.331427}, "City_name": "Detroit", "Arena_name": "Little Caesars Arena", "Date": "20180406", "Home_team": "DAL"}, {"Away_team": "ORL", "Location": {"lat": 28.5383355, "long": 28.5383355}, "City_name": "Orlando", "Arena_name": "Amway Center", "Date": "20180406", "Home_team": "CHA"}, {"Away_team": "PHI", "Location": {"lat": 39.9525839, "long": 39.9525839}, "City_name": "Philadelphia", "Arena_name": "Wells Fargo Center", "Date": "20180406", "Home_team": "CLE"}, {"Away_team": "WAS", "Location": {"lat": 47.7510741, "long": 47.7510741}, "City_name": "Washington", "Arena_name": "Capital One Arena", "Date": "20180406", "Home_team": "ATL"}, {"Away_team": "BOS", "Location": {"lat": 42.3600825, "long": 42.3600825}, "City_name": "Boston", "Arena_name": "TD Garden", "Date": "20180406", "Home_team": "CHI"}, {"Away_team": "NYK", "Location": {"lat": 40.7127753, "long": 40.7127753}, "City_name": "New York", "Arena_name": "Madison Square Garden", "Date": "20180406", "Home_team": "MIA"}, {"Away_team": "TOR", "Location": {"lat": 43.653226, "long": 43.653226}, "City_name": "Toronto", "Arena_name": "Air Canada Centre", "Date": "20180406", "Home_team": "IND"}, {"Away_team": "MEM", "Location": {"lat": 35.1495343, "long": 35.1495343}, "City_name": "Memphis", "Arena_name": "FedExForum", "Date": "20180406", "Home_team": "SAC"}, {"Away_team": "PHX", "Location": {"lat": 33.4483771, "long": 33.4483771}, "City_name": "Phoenix", "Arena_name": "Talking Stick Resort Arena", "Date": "20180406", "Home_team": "NOP"}, {"Away_team": "LAL", "Location": {"lat": 34.0522342, "long": 34.0522342}, "City_name": "Los Angeles", "Arena_name": "Staples Center", "Date": "20180406", "Home_team": "MIN"}, {"Away_team": "LAC", "Location": {"lat": 34.0522342, "long": 34.0522342}, "City_name": "Los Angeles", "Arena_name": "Staples Center", "Date": "20180407", "Home_team": "DEN"}, {"Away_team": "NYK", "Location": {"lat": 40.7127753, "long": 40.7127753}, "City_name": "New York", "Arena_name": "Madison Square Garden", "Date": "20180407", "Home_team": "MIL"}, {"Away_team": "CHI", "Location": {"lat": 41.8781136, "long": 41.8781136}, "City_name": "Chicago", "Arena_name": "United Center", "Date": "20180407", "Home_team": "BKN"}, {"Away_team": "HOU", "Location": {"lat": 29.7604267, "long": 29.7604267}, "City_name": "Houston", "Arena_name": "Toyota Center", "Date": "20180407", "Home_team": "OKC"}, {"Away_team": "GSW", "Location": {"lat": 37.8043637, "long": 37.8043637}, "City_name": "Oakland", "Arena_name": "ORACLE Arena", "Date": "20180407", "Home_team": "NOP"}, {"Away_team": "SAS", "Location": {"lat": 29.4241219, "long": 29.4241219}, "City_name": "San Antonio", "Arena_name": "AT&T Center", "Date": "20180407", "Home_team": "POR"}, {"Away_team": "CHA", "Location": {"lat": 35.2270869, "long": 35.2270869}, "City_name": "Charlotte", "Arena_name": "Spectrum Center", "Date": "20180408", "Home_team": "IND"}, {"Away_team": "PHI", "Location": {"lat": 39.9525839, "long": 39.9525839}, "City_name": "Philadelphia", "Arena_name": "Wells Fargo Center", "Date": "20180408", "Home_team": "DAL"}, {"Away_team": "BOS", "Location": {"lat": 42.3600825, "long": 42.3600825}, "City_name": "Boston", "Arena_name": "TD Garden", "Date": "20180408", "Home_team": "ATL"}, {"Away_team": "MEM", "Location": {"lat": 35.1495343, "long": 35.1495343}, "City_name": "Memphis", "Arena_name": "FedExForum", "Date": "20180408", "Home_team": "DET"}, {"Away_team": "TOR", "Location": {"lat": 43.653226, "long": 43.653226}, "City_name": "Toronto", "Arena_name": "Air Canada Centre", "Date": "20180408", "Home_team": "ORL"}, {"Away_team": "LAL", "Location": {"lat": 34.0522342, "long": 34.0522342}, "City_name": "Los Angeles", "Arena_name": "Staples Center", "Date": "20180408", "Home_team": "UTA"}, {"Away_team": "PHX", "Location": {"lat": 33.4483771, "long": 33.4483771}, "City_name": "Phoenix", "Arena_name": "Talking Stick Resort Arena", "Date": "20180408", "Home_team": "GSW"}, {"Away_team": "DET", "Location": {"lat": 42.331427, "long": 42.331427}, "City_name": "Detroit", "Arena_name": "Little Caesars Arena", "Date": "20180409", "Home_team": "TOR"}, {"Away_team": "BKN", "Location": {"lat": 40.6781784, "long": 40.6781784}, "City_name": "Brooklyn", "Arena_name": "Barclays Center", "Date": "20180409", "Home_team": "CHI"}, {"Away_team": "MIA", "Location": {"lat": 25.7616798, "long": 25.7616798}, "City_name": "Miami", "Arena_name": "AmericanAirlines Arena", "Date": "20180409", "Home_team": "OKC"}, {"Away_team": "NYK", "Location": {"lat": 40.7127753, "long": 40.7127753}, "City_name": "New York", "Arena_name": "Madison Square Garden", "Date": "20180409", "Home_team": "CLE"}, {"Away_team": "MIL", "Location": {"lat": 43.0389025, "long": 43.0389025}, "City_name": "Milwaukee", "Arena_name": "BMO Harris Bradley Center", "Date": "20180409", "Home_team": "ORL"}, {"Away_team": "MIN", "Location": {"lat": 44.977753, "long": 44.977753}, "City_name": "Minneapolis", "Arena_name": "Target Center", "Date": "20180409", "Home_team": "MEM"}, {"Away_team": "SAS", "Location": {"lat": 29.4241219, "long": 29.4241219}, "City_name": "San Antonio", "Arena_name": "AT&T Center", "Date": "20180409", "Home_team": "SAC"}, {"Away_team": "DEN", "Location": {"lat": 39.7392358, "long": 39.7392358}, "City_name": "Denver", "Arena_name": "Pepsi Center", "Date": "20180409", "Home_team": "POR"}, {"Away_team": "LAC", "Location": {"lat": 34.0522342, "long": 34.0522342}, "City_name": "Los Angeles", "Arena_name": "Staples Center", "Date": "20180409", "Home_team": "NOP"}, {"Away_team": "IND", "Location": {"lat": 39.768403, "long": 39.768403}, "City_name": "Indianapolis", "Arena_name": "Bankers Life Fieldhouse", "Date": "20180410", "Home_team": "CHA"}, {"Away_team": "ATL", "Location": {"lat": 33.7489954, "long": 33.7489954}, "City_name": "Atlanta", "Arena_name": "Philips Arena", "Date": "20180410", "Home_team": "PHI"}, {"Away_team": "WAS", "Location": {"lat": 47.7510741, "long": 47.7510741}, "City_name": "Washington", "Arena_name": "Capital One Arena", "Date": "20180410", "Home_team": "BOS"}, {"Away_team": "DAL", "Location": {"lat": 32.7766642, "long": 32.7766642}, "City_name": "Dallas", "Arena_name": "American Airlines Center", "Date": "20180410", "Home_team": "PHX"}, {"Away_team": "UTA", "Location": {"lat": 40.7607793, "long": 40.7607793}, "City_name": "Salt Lake City", "Arena_name": "Vivint Smart Home Arena", "Date": "20180410", "Home_team": "GSW"}, {"Away_team": "LAL", "Location": {"lat": 34.0522342, "long": 34.0522342}, "City_name": "Los Angeles", "Arena_name": "Staples Center", "Date": "20180410", "Home_team": "HOU"}, {"Away_team": "BOS", "Location": {"lat": 42.3600825, "long": 42.3600825}, "City_name": "Boston", "Arena_name": "TD Garden", "Date": "20180411", "Home_team": "BKN"}, {"Away_team": "CLE", "Location": {"lat": 41.49932, "long": 41.49932}, "City_name": "Cleveland", "Arena_name": "Quicken Loans Arena", "Date": "20180411", "Home_team": "NYK"}, {"Away_team": "MIA", "Location": {"lat": 25.7616798, "long": 25.7616798}, "City_name": "Miami", "Arena_name": "AmericanAirlines Arena", "Date": "20180411", "Home_team": "TOR"}, {"Away_team": "ORL", "Location": {"lat": 28.5383355, "long": 28.5383355}, "City_name": "Orlando", "Arena_name": "Amway Center", "Date": "20180411", "Home_team": "WAS"}, {"Away_team": "PHI", "Location": {"lat": 39.9525839, "long": 39.9525839}, "City_name": "Philadelphia", "Arena_name": "Wells Fargo Center", "Date": "20180411", "Home_team": "MIL"}, {"Away_team": "CHI", "Location": {"lat": 41.8781136, "long": 41.8781136}, "City_name": "Chicago", "Arena_name": "United Center", "Date": "20180411", "Home_team": "DET"}, {"Away_team": "MIN", "Location": {"lat": 44.977753, "long": 44.977753}, "City_name": "Minneapolis", "Arena_name": "Target Center", "Date": "20180411", "Home_team": "DEN"}, {"Away_team": "NOP", "Location": {"lat": 29.95106579999999, "long": 29.95106579999999}, "City_name": "New Orleans", "Arena_name": "Smoothie King Center", "Date": "20180411", "Home_team": "SAS"}, {"Away_team": "OKC", "Location": {"lat": 35.4675602, "long": 35.4675602}, "City_name": "Oklahoma City", "Arena_name": "Chesapeake Energy Arena", "Date": "20180411", "Home_team": "MEM"}, {"Away_team": "LAC", "Location": {"lat": 34.0522342, "long": 34.0522342}, "City_name": "Los Angeles", "Arena_name": "Staples Center", "Date": "20180411", "Home_team": "LAL"}, {"Away_team": "POR", "Location": {"lat": 45.5230622, "long": 45.5230622}, "City_name": "Portland", "Arena_name": "Moda Center", "Date": "20180411", "Home_team": "UTA"}, {"Away_team": "SAC", "Location": {"lat": 38.5815719, "long": 38.5815719}, "City_name": "Sacramento", "Arena_name": "Golden 1 Center", "Date": "20180411", "Home_team": "HOU"}]